{"ShortDesc":"Ufa-Sheremetyevo","LongDesc":"","Legs":[{"Z":0,"DTK":272,"S":113,"NAME":"UWUU-TILMU","startLat":54.563605991656,"startLon":55.88436933042,"endLat":54.822498321533,"endLon":54.18083190918},{"Z":0,"DTK":272.7,"S":208,"NAME":"TILMU-LEKBO","startLat":54.822498321533,"startLon":54.18083190918,"endLat":55.268890380859,"endLon":51.014999389648},{"Z":0,"DTK":271.9,"S":67,"NAME":"LEKBO-ORTIM","startLat":55.268890380859,"startLon":51.014999389648,"endLat":55.387500762939,"endLon":49.970275878906},{"Z":0,"DTK":269.3,"S":639,"NAME":"ORTIM-DIMGI","startLat":55.387500762939,"startLon":49.970275878906,"endLat":55.794445037842,"endLon":39.811111450195},{"Z":0,"DTK":277.9,"S":151,"startLat":55.794445037842,"startLon":39.811111450195,"NAME":"DIMGI-UUEE"}],"Name":"UWUU-UUEE"}